{"children": [{"children": [{"children": [{"children": [{"children": [{"href": "http://www.openstreetmap.org/?mlat=46.5372907&mlon=15.6379373#map=17/46.5372907/15.6379373&layers=T", "name": "Ljubljanska - stolpnica (MARPROM:223)"}, {"href": "http://www.openstreetmap.org/?mlat=46.5408421&mlon=15.6413234#map=17/46.5408421/15.6413234&layers=T", "name": "Prol. brigad - Ljubljanska (MARPROM:293)"}, {"href": "http://www.openstreetmap.org/?mlat=46.5573834&mlon=15.6468635#map=17/46.5573834/15.6468635&layers=T", "name": "Glavni trg - \u017didovska (MARPROM:52)"}, {"href": "http://www.openstreetmap.org/?mlat=46.5544565&mlon=15.6513759#map=17/46.5544565/15.6513759&layers=T", "name": "Europark (MARPROM:352)"}, {"href": "http://www.openstreetmap.org/?mlat=46.5627997&mlon=15.6291728#map=17/46.5627997/15.6291728&layers=T", "name": "Gosposvetska - rondo (MARPROM:3)"}, {"href": "http://www.openstreetmap.org/?mlat=46.5391357&mlon=15.5996698#map=17/46.5391357/15.5996698&layers=T", "name": "Ob ribniku (MARPROM:243)"}, {"href": "http://www.openstreetmap.org/?mlat=46.5605717&mlon=15.6407232#map=17/46.5605717/15.6407232&layers=T", "name": "Tretja gimnazija (MARPROM:98)"}, {"href": "http://www.openstreetmap.org/?mlat=46.5319968&mlon=15.6677377#map=17/46.5319968/15.6677377&layers=T", "name": "Ptujska - Po\u0161ta (MARPROM:177)"}, {"href": "http://www.openstreetmap.org/?mlat=46.5617151&mlon=15.6568943#map=17/46.5617151/15.6568943&layers=T", "name": "\u017dP zaliv (MARPROM:361)"}, {"href": "http://www.openstreetmap.org/?mlat=46.5605368&mlon=15.6581219#map=17/46.5605368/15.6581219&layers=T", "name": "Meljska - Partizanska (MARPROM:54)"}, {"href": "http://www.openstreetmap.org/?mlat=46.6186355&mlon=15.5656383#map=17/46.6186355/15.5656383&layers=T", "name": "Gaj nad Mariborom (MARPROM:264)"}, {"href": "http://www.openstreetmap.org/?mlat=46.5557822&mlon=15.6315684#map=17/46.5557822/15.6315684&layers=T", "name": "Valvasorjeva - Koren\u010danova (MARPROM:157)"}, {"href": "http://www.openstreetmap.org/?mlat=46.5497987&mlon=15.6370199#map=17/46.5497987/15.6370199&layers=T", "name": "Koresova - dvorana Tabor (MARPROM:249)"}, {"href": "http://www.openstreetmap.org/?mlat=46.5553337&mlon=15.6147446#map=17/46.5553337/15.6147446&layers=T", "name": "Erjav\u010deva (MARPROM:347)"}, {"href": "http://www.openstreetmap.org/?mlat=46.5216481&mlon=15.6352797#map=17/46.5216481/15.6352797&layers=T", "name": "Razvanje - vrtnarstvo (MARPROM:70)"}, {"href": "http://www.openstreetmap.org/?mlat=46.5191503&mlon=15.6922831#map=17/46.5191503/15.6922831&layers=T", "name": "Pokopali\u0161\u010de Dobrava - vhod (MARPROM:297)"}, {"href": "http://www.openstreetmap.org/?mlat=46.5612799&mlon=15.6371092#map=17/46.5612799/15.6371092&layers=T", "name": "Gosposvetska - Vrbanska (MARPROM:97)"}, {"href": "http://www.openstreetmap.org/?mlat=46.5547149&mlon=15.6532324#map=17/46.5547149/15.6532324&layers=T", "name": "Pobre\u0161ka - Europark (MARPROM:24)"}, {"href": "http://www.openstreetmap.org/?mlat=46.5383943&mlon=15.6118024#map=17/46.5383943/15.6118024&layers=T", "name": "Lackova - Stara lipa (MARPROM:187)"}, {"href": "http://www.openstreetmap.org/?mlat=46.5194954&mlon=15.6961589#map=17/46.5194954/15.6961589&layers=T", "name": "Pokopali\u0161\u010de Dobrava - obra\u010dali\u0161\u010de (MARPROM:80)"}, {"href": "http://www.openstreetmap.org/?mlat=46.5597788&mlon=15.6554224#map=17/46.5597788/15.6554224&layers=T", "name": "AP Mlinska (MARPROM:23)"}, {"href": "http://www.openstreetmap.org/?mlat=46.5547067&mlon=15.6542622#map=17/46.5547067/15.6542622&layers=T", "name": "Pobre\u0161ka - Europark (MARPROM:50)"}, {"href": "http://www.openstreetmap.org/?mlat=46.5853546&mlon=15.5686639#map=17/46.5853546/15.5686639&layers=T", "name": "\u0160ober - dvor (MARPROM:259)"}, {"href": "http://www.openstreetmap.org/?mlat=46.5622779&mlon=15.63132#map=17/46.5622779/15.63132&layers=T", "name": "Gosposvetska - Turnerjeva (MARPROM:96)"}, {"href": "http://www.openstreetmap.org/?mlat=46.5483568&mlon=15.6432065#map=17/46.5483568/15.6432065&layers=T", "name": "Pari\u0161ke komune (MARPROM:351)"}, {"href": "http://www.openstreetmap.org/?mlat=46.5544813&mlon=15.6593662#map=17/46.5544813/15.6593662&layers=T", "name": "Greenwich (MARPROM:25)"}, {"href": "http://www.openstreetmap.org/?mlat=46.5535005&mlon=15.6398967#map=17/46.5535005/15.6398967&layers=T", "name": "Valvasorjeva - O\u0160 Maks Durjava (MARPROM:159)"}, {"href": "http://www.openstreetmap.org/?mlat=46.5446063&mlon=15.6258593#map=17/46.5446063/15.6258593&layers=T", "name": "Prol. brigad - voja\u0161nica (MARPROM:290)"}, {"href": "http://www.openstreetmap.org/?mlat=46.5439595&mlon=15.6295578#map=17/46.5439595/15.6295578&layers=T", "name": "Prol. brigad - lekarna (MARPROM:291)"}, {"href": "http://www.openstreetmap.org/?mlat=46.5440435&mlon=15.7068866#map=17/46.5440435/15.7068866&layers=T", "name": "Zrkovci - Na gorci 65 (MARPROM:132)"}, {"href": "http://www.openstreetmap.org/?mlat=46.5368957&mlon=15.6586556#map=17/46.5368957/15.6586556&layers=T", "name": "Ptujska - Kovinar (MARPROM:85)"}, {"href": "http://www.openstreetmap.org/?mlat=46.5335633&mlon=15.6647497#map=17/46.5335633/15.6647497&layers=T", "name": "Ptujska - Avtocommerce (MARPROM:176)"}, {"href": "http://www.openstreetmap.org/?mlat=46.5711106&mlon=15.614233#map=17/46.5711106/15.614233&layers=T", "name": "Kamnica - kri\u017ei\u0161\u010de / Kamnica/Mar.K (MARPROM:357)"}, {"href": "http://www.openstreetmap.org/?mlat=46.5524223&mlon=15.708299#map=17/46.5524223/15.708299&layers=T", "name": "Male\u010dnik - trgovina (MARPROM:32)"}, {"href": "http://www.openstreetmap.org/?mlat=46.5212356&mlon=15.6516503#map=17/46.5212356/15.6516503&layers=T", "name": "E.Leclerc - obra\u010dali\u0161\u010de (MARPROM:217)"}, {"href": "http://www.openstreetmap.org/?mlat=46.5220447&mlon=15.6719518#map=17/46.5220447/15.6719518&layers=T", "name": "Po\u0161tni center - obra\u010dali\u0161\u010de (MARPROM:317)"}, {"href": "http://www.openstreetmap.org/?mlat=46.538575&mlon=15.6548307#map=17/46.538575/15.6548307&layers=T", "name": "Ptujska - hitra cesta (MARPROM:174)"}, {"href": "http://www.openstreetmap.org/?mlat=46.5362008&mlon=15.6205131#map=17/46.5362008/15.6205131&layers=T", "name": "Streli\u0161ka - Ul. Pohorskega odreda (MARPROM:188)"}, {"href": "http://www.openstreetmap.org/?mlat=46.554535&mlon=15.6354902#map=17/46.554535/15.6354902&layers=T", "name": "\u017dP Studenci (MARPROM:158)"}, {"href": "http://www.openstreetmap.org/?mlat=46.5590501&mlon=15.6512367#map=17/46.5590501/15.6512367&layers=T", "name": "CITY center (MARPROM:53)"}, {"href": "http://www.openstreetmap.org/?mlat=46.5569788&mlon=15.6111857#map=17/46.5569788/15.6111857&layers=T", "name": "Studenci - obra\u010dali\u0161\u010de (MARPROM:282)"}, {"href": "http://www.openstreetmap.org/?mlat=46.5722623&mlon=15.5684477#map=17/46.5722623/15.5684477&layers=T", "name": "\u0160ober - \u017dunko (MARPROM:270)"}, {"href": "http://www.openstreetmap.org/?mlat=46.5645353&mlon=15.6499234#map=17/46.5645353/15.6499234&layers=T", "name": "Akvarij (MARPROM:342)"}, {"href": "http://www.openstreetmap.org/?mlat=46.5340489&mlon=15.6351065#map=17/46.5340489/15.6351065&layers=T", "name": "Ljubljanska 140 (MARPROM:216)"}, {"href": "http://www.openstreetmap.org/?mlat=46.5184526&mlon=15.683817#map=17/46.5184526/15.683817&layers=T", "name": "Pokopali\u0161\u010de Dobrava K (MARPROM:82)"}, {"href": "http://www.openstreetmap.org/?mlat=46.5397445&mlon=15.6486953#map=17/46.5397445/15.6486953&layers=T", "name": "Ptujska - Tr\u017ea\u0161ka (MARPROM:173)"}, {"href": "http://www.openstreetmap.org/?mlat=46.5396226&mlon=15.6540235#map=17/46.5396226/15.6540235&layers=T", "name": "Ptujska - hitra cesta (MARPROM:86)"}, {"href": "http://www.openstreetmap.org/?mlat=46.5564149&mlon=15.6042229#map=17/46.5564149/15.6042229&layers=T", "name": "Limbu\u0161ka c. - Lesarska (MARPROM:285)"}, {"href": "http://www.openstreetmap.org/?mlat=46.5468268&mlon=15.6247742#map=17/46.5468268/15.6247742&layers=T", "name": "Engelsova - voja\u0161nica (MARPROM:231)"}, {"href": "http://www.openstreetmap.org/?mlat=46.5148243&mlon=15.7126413#map=17/46.5148243/15.7126413&layers=T", "name": "Dogo\u0161e - obra\u010dali\u0161\u010de (MARPROM:310)"}], "name": "NOT_EDGE_RETURNED", "count": 50}, {"children": [{"href": "http://www.openstreetmap.org/?mlat=46.5505673&mlon=15.6562678#map=17/46.5505673/15.6562678&layers=T", "name": "Nasipna - SNAGA (MARPROM:328)"}, {"href": "http://www.openstreetmap.org/?mlat=46.550041&mlon=15.6219488#map=17/46.550041/15.6219488&layers=T", "name": "Dravograjska - I. internacionale (MARPROM:93)"}, {"href": "http://www.openstreetmap.org/?mlat=46.5507493&mlon=15.6868089#map=17/46.5507493/15.6868089&layers=T", "name": "Zrkovska - trgovina (MARPROM:135)"}, {"href": "http://www.openstreetmap.org/?mlat=46.5424336&mlon=15.6384448#map=17/46.5424336/15.6384448&layers=T", "name": "Betnavska - Metelkova (MARPROM:77)"}, {"href": "http://www.openstreetmap.org/?mlat=46.5577226&mlon=15.7251587#map=17/46.5577226/15.7251587&layers=T", "name": "Nebova II (MARPROM:391)"}, {"href": "http://www.openstreetmap.org/?mlat=46.5672167&mlon=15.6589805#map=17/46.5672167/15.6589805&layers=T", "name": "\u0160entiljska - Medved (MARPROM:373)"}, {"href": "http://www.openstreetmap.org/?mlat=46.531682&mlon=15.6687184#map=17/46.531682/15.6687184&layers=T", "name": "Ptujska - Po\u0161ta (MARPROM:8)"}, {"href": "http://www.openstreetmap.org/?mlat=46.5283548&mlon=15.7062864#map=17/46.5283548/15.7062864&layers=T", "name": "Sven\u0161kova ulica 40 (MARPROM:126)"}, {"href": "http://www.openstreetmap.org/?mlat=46.5564221&mlon=15.7332333#map=17/46.5564221/15.7332333&layers=T", "name": "Kronaveter (MARPROM:393)"}, {"href": "http://www.openstreetmap.org/?mlat=46.5374216&mlon=15.7248448#map=17/46.5374216/15.7248448&layers=T", "name": "Novak (MARPROM:35)"}, {"href": "http://www.openstreetmap.org/?mlat=46.5563896&mlon=15.6614562#map=17/46.5563896/15.6614562&layers=T", "name": "Ore\u0161ko nabre\u017eje 1 (MARPROM:227)"}, {"href": "http://www.openstreetmap.org/?mlat=46.568531&mlon=15.5934621#map=17/46.568531/15.5934621&layers=T", "name": "\u010colnarna (MARPROM:273)"}, {"href": "http://www.openstreetmap.org/?mlat=46.5465852&mlon=15.7054559#map=17/46.5465852/15.7054559&layers=T", "name": "Zrkovci - Na gorci 54 (MARPROM:133)"}, {"href": "http://www.openstreetmap.org/?mlat=46.5379106&mlon=15.6351129#map=17/46.5379106/15.6351129&layers=T", "name": "Betnavska - Knafel\u010deva (MARPROM:75)"}, {"href": "http://www.openstreetmap.org/?mlat=46.5337148&mlon=15.63496#map=17/46.5337148/15.63496&layers=T", "name": "Ljubljanska 140 (MARPROM:222)"}, {"href": "http://www.openstreetmap.org/?mlat=46.5412187&mlon=15.6834549#map=17/46.5412187/15.6834549&layers=T", "name": "Duple\u0161ka - Tezenska (MARPROM:301)"}, {"href": "http://www.openstreetmap.org/?mlat=46.5347219&mlon=15.6581321#map=17/46.5347219/15.6581321&layers=T", "name": "Zagreb\u0161ka - Kovinar (MARPROM:321)"}, {"href": "http://www.openstreetmap.org/?mlat=46.5394785&mlon=15.6513132#map=17/46.5394785/15.6513132&layers=T", "name": "\u017dP Tezno (MARPROM:322)"}, {"href": "http://www.openstreetmap.org/?mlat=46.5442112&mlon=15.7067433#map=17/46.5442112/15.7067433&layers=T", "name": "Zrkovci - Na gorci 65 (MARPROM:125)"}, {"href": "http://www.openstreetmap.org/?mlat=46.5564074&mlon=15.6207645#map=17/46.5564074/15.6207645&layers=T", "name": "Limbu\u0161ka - Pekrska (MARPROM:155)"}, {"href": "http://www.openstreetmap.org/?mlat=46.5250417&mlon=15.669955#map=17/46.5250417/15.669955&layers=T", "name": "Pri TAM-u (MARPROM:338)"}, {"href": "http://www.openstreetmap.org/?mlat=46.5506212&mlon=15.588232#map=17/46.5506212/15.588232&layers=T", "name": "Limbu\u0161 - Po\u0161ta (MARPROM:149)"}, {"href": "http://www.openstreetmap.org/?mlat=46.5517145&mlon=15.62874#map=17/46.5517145/15.62874&layers=T", "name": "Na Poljanah - Planet TU\u0160 (MARPROM:350)"}, {"href": "http://www.openstreetmap.org/?mlat=46.5502741&mlon=15.5886432#map=17/46.5502741/15.5886432&layers=T", "name": "Limbu\u0161 - Po\u0161ta (MARPROM:288)"}, {"href": "http://www.openstreetmap.org/?mlat=46.5628691&mlon=15.6292035#map=17/46.5628691/15.6292035&layers=T", "name": "Gosposvetska - rondo (MARPROM:115)"}, {"href": "http://www.openstreetmap.org/?mlat=46.5789286&mlon=15.6133899#map=17/46.5789286/15.6133899&layers=T", "name": "Cesta v Ro\u0161poh 65 (MARPROM:206)"}, {"href": "http://www.openstreetmap.org/?mlat=46.5344471&mlon=15.6302216#map=17/46.5344471/15.6302216&layers=T", "name": "Kardeljeva - Bor\u0161tnikova (MARPROM:72)"}, {"href": "http://www.openstreetmap.org/?mlat=46.570141&mlon=15.6014713#map=17/46.570141/15.6014713&layers=T", "name": "Mariborski otok - HE (MARPROM:274)"}, {"href": "http://www.openstreetmap.org/?mlat=46.5511046&mlon=15.6397746#map=17/46.5511046/15.6397746&layers=T", "name": "Gorkega - Preradovi\u010deva (MARPROM:184)"}, {"href": "http://www.openstreetmap.org/?mlat=46.5820474&mlon=15.6661081#map=17/46.5820474/15.6661081&layers=T", "name": "Na prehodu (MARPROM:369)"}, {"href": "http://www.openstreetmap.org/?mlat=46.5362312&mlon=15.688939#map=17/46.5362312/15.688939&layers=T", "name": "Brezje (MARPROM:300)"}, {"href": "http://www.openstreetmap.org/?mlat=46.5677215&mlon=15.584465#map=17/46.5677215/15.584465&layers=T", "name": "Bresternica - odcep (MARPROM:253)"}, {"href": "http://www.openstreetmap.org/?mlat=46.5362319&mlon=15.6252591#map=17/46.5362319/15.6252591&layers=T", "name": "Radvanjska - Bor\u0161tnikova (MARPROM:140)"}, {"href": "http://www.openstreetmap.org/?mlat=46.5503283&mlon=15.6409748#map=17/46.5503283/15.6409748&layers=T", "name": "Betnavska - \u017dolgarjeva (MARPROM:79)"}, {"href": "http://www.openstreetmap.org/?mlat=46.5549635&mlon=15.5835686#map=17/46.5549635/15.5835686&layers=T", "name": "Limbu\u0161ka c. - rondo (MARPROM:286)"}, {"href": "http://www.openstreetmap.org/?mlat=46.546565&mlon=15.6201807#map=17/46.546565/15.6201807&layers=T", "name": "Dravograjska - Qlandia (MARPROM:92)"}, {"href": "http://www.openstreetmap.org/?mlat=46.5620109&mlon=15.6435945#map=17/46.5620109/15.6435945&layers=T", "name": "Krekova (MARPROM:111)"}, {"href": "http://www.openstreetmap.org/?mlat=46.5456112&mlon=15.6565746#map=17/46.5456112/15.6565746&layers=T", "name": "\u010crnogorska \u0161t. 23 (MARPROM:325)"}, {"href": "http://www.openstreetmap.org/?mlat=46.5563982&mlon=15.6046254#map=17/46.5563982/15.6046254&layers=T", "name": "Limbu\u0161ka c. - Lesarska (MARPROM:152)"}, {"href": "http://www.openstreetmap.org/?mlat=46.5640319&mlon=15.6392008#map=17/46.5640319/15.6392008&layers=T", "name": "Stadion - Ljudski vrt (MARPROM:193)"}, {"href": "http://www.openstreetmap.org/?mlat=46.565932&mlon=15.571903#map=17/46.565932/15.571903&layers=T", "name": "Bresternica - obra\u010dali\u0161\u010de (MARPROM:255)"}, {"href": "http://www.openstreetmap.org/?mlat=46.5393618&mlon=15.7206468#map=17/46.5393618/15.7206468&layers=T", "name": "Tr\u010dova - Gri\u010dek (MARPROM:34)"}, {"href": "http://www.openstreetmap.org/?mlat=46.573969&mlon=15.6231638#map=17/46.573969/15.6231638&layers=T", "name": "Kamnica - hipodrom (MARPROM:210)"}, {"href": "http://www.openstreetmap.org/?mlat=46.559669&mlon=15.6419257#map=17/46.559669/15.6419257&layers=T", "name": "Strossmayerjeva (MARPROM:162)"}, {"href": "http://www.openstreetmap.org/?mlat=46.5465118&mlon=15.6351532#map=17/46.5465118/15.6351532&layers=T", "name": "Radvanjska - voja\u0161nica (MARPROM:192)"}, {"href": "http://www.openstreetmap.org/?mlat=46.5515362&mlon=15.6216146#map=17/46.5515362/15.6216146&layers=T", "name": "\u0160arhova - po\u0161ta (MARPROM:161)"}, {"href": "http://www.openstreetmap.org/?mlat=46.5464094&mlon=15.6719831#map=17/46.5464094/15.6719831&layers=T", "name": "Cesta XIV. divizije - O\u0160 D. Kobala (MARPROM:303)"}, {"href": "http://www.openstreetmap.org/?mlat=46.5612025&mlon=15.649323#map=17/46.5612025/15.649323&layers=T", "name": "Gregor\u010di\u010deva (MARPROM:110)"}, {"href": "http://www.openstreetmap.org/?mlat=46.5568941&mlon=15.6267786#map=17/46.5568941/15.6267786&layers=T", "name": "Valvasorjeva - transformator (MARPROM:279)"}, {"href": "http://www.openstreetmap.org/?mlat=46.5676201&mlon=15.5851463#map=17/46.5676201/15.5851463&layers=T", "name": "Bresternica - odcep (MARPROM:272)"}, {"href": "http://www.openstreetmap.org/?mlat=46.5234103&mlon=15.7039644#map=17/46.5234103/15.7039644&layers=T", "name": "Dogo\u0161e - GD (MARPROM:314)"}, {"href": "http://www.openstreetmap.org/?mlat=46.5409389&mlon=15.6835864#map=17/46.5409389/15.6835864&layers=T", "name": "Duple\u0161ka - Tezenska (MARPROM:106)"}, {"href": "http://www.openstreetmap.org/?mlat=46.5501356&mlon=15.6658676#map=17/46.5501356/15.6658676&layers=T", "name": "Pokopali\u0161\u010de Pobre\u017eje (MARPROM:304)"}, {"href": "http://www.openstreetmap.org/?mlat=46.5487749&mlon=15.6117886#map=17/46.5487749/15.6117886&layers=T", "name": "Ilichova - Korbunova obra\u010dali\u0161\u010de (MARPROM:168)"}, {"href": "http://www.openstreetmap.org/?mlat=46.5513811&mlon=15.7435115#map=17/46.5513811/15.7435115&layers=T", "name": "Zimica - odcep (MARPROM:380)"}, {"href": "http://www.openstreetmap.org/?mlat=46.587016&mlon=15.6165656#map=17/46.587016/15.6165656&layers=T", "name": "Ro\u0161poh odcep Urban (MARPROM:204)"}, {"href": "http://www.openstreetmap.org/?mlat=46.5762148&mlon=15.6668957#map=17/46.5762148/15.6668957&layers=T", "name": "Ko\u0161a\u0161ki dol (MARPROM:367)"}, {"href": "http://www.openstreetmap.org/?mlat=46.5375278&mlon=15.724839#map=17/46.5375278/15.724839&layers=T", "name": "Novak (MARPROM:39)"}, {"href": "http://www.openstreetmap.org/?mlat=46.5546117&mlon=15.6721289#map=17/46.5546117/15.6721289&layers=T", "name": "\u010cufarjeva - dom st. ob\u010danov (MARPROM:47)"}, {"href": "http://www.openstreetmap.org/?mlat=46.5606952&mlon=15.6404791#map=17/46.5606952/15.6404791&layers=T", "name": "Tretja gimnazija (MARPROM:112)"}, {"href": "http://www.openstreetmap.org/?mlat=46.5283468&mlon=15.6758917#map=17/46.5283468/15.6758917&layers=T", "name": "Dogo\u0161ka - vrtec (MARPROM:179)"}, {"href": "http://www.openstreetmap.org/?mlat=46.5431721&mlon=15.6385579#map=17/46.5431721/15.6385579&layers=T", "name": "Betnavska - Metelkova (MARPROM:58)"}, {"href": "http://www.openstreetmap.org/?mlat=46.5279003&mlon=15.6798182#map=17/46.5279003/15.6798182&layers=T", "name": "KS Silvira Tomassini (MARPROM:294)"}, {"href": "http://www.openstreetmap.org/?mlat=46.5331663&mlon=15.5997183#map=17/46.5331663/15.5997183&layers=T", "name": "Vzpenja\u010da - obra\u010dali\u0161\u010de (MARPROM:145)"}, {"href": "http://www.openstreetmap.org/?mlat=46.5372252&mlon=15.5919356#map=17/46.5372252/15.5919356&layers=T", "name": "Lesjakova 2 (MARPROM:241)"}, {"href": "http://www.openstreetmap.org/?mlat=46.5735685&mlon=15.6159156#map=17/46.5735685/15.6159156&layers=T", "name": "Kamnica - \u0161ola (MARPROM:197)"}, {"href": "http://www.openstreetmap.org/?mlat=46.5456204&mlon=15.6564512#map=17/46.5456204/15.6564512&layers=T", "name": "\u010crnogorska \u0161t. 23 (MARPROM:330)"}, {"href": "http://www.openstreetmap.org/?mlat=46.5561344&mlon=15.6304043#map=17/46.5561344/15.6304043&layers=T", "name": "Valvasorjeva - Koren\u010danova (MARPROM:278)"}, {"href": "http://www.openstreetmap.org/?mlat=46.5685771&mlon=15.6488229#map=17/46.5685771/15.6488229&layers=T", "name": "Kli\u010dek (MARPROM:341)"}, {"href": "http://www.openstreetmap.org/?mlat=46.5506758&mlon=15.686785#map=17/46.5506758/15.686785&layers=T", "name": "Zrkovska - trgovina (MARPROM:121)"}, {"href": "http://www.openstreetmap.org/?mlat=46.5497602&mlon=15.6456075#map=17/46.5497602/15.6456075&layers=T", "name": "Ljubljanska - Pari\u0161ke komune (MARPROM:13)"}, {"href": "http://www.openstreetmap.org/?mlat=46.5425467&mlon=15.6348021#map=17/46.5425467/15.6348021&layers=T", "name": "Prol. brigad - Delo (MARPROM:292)"}, {"href": "http://www.openstreetmap.org/?mlat=46.5216998&mlon=15.6351724#map=17/46.5216998/15.6351724&layers=T", "name": "Razvanje - vrtnarstvo (MARPROM:65)"}, {"href": "http://www.openstreetmap.org/?mlat=46.5501323&mlon=15.7406872#map=17/46.5501323/15.7406872&layers=T", "name": "Metava - odcep (MARPROM:395)"}, {"href": "http://www.openstreetmap.org/?mlat=46.5810354&mlon=15.6626174#map=17/46.5810354/15.6626174&layers=T", "name": "\u0160entiljska - veterinar (MARPROM:370)"}, {"href": "http://www.openstreetmap.org/?mlat=46.5426484&mlon=15.6576637#map=17/46.5426484/15.6576637&layers=T", "name": "Makedonska (MARPROM:324)"}, {"href": "http://www.openstreetmap.org/?mlat=46.560841&mlon=15.729391#map=17/46.560841/15.729391&layers=T", "name": "Ruper\u010de (MARPROM:384)"}, {"href": "http://www.openstreetmap.org/?mlat=46.5395204&mlon=15.7205904#map=17/46.5395204/15.7205904&layers=T", "name": "Tr\u010dova - Gri\u010dek (MARPROM:40)"}, {"href": "http://www.openstreetmap.org/?mlat=46.553021&mlon=15.7057942#map=17/46.553021/15.7057942&layers=T", "name": "Male\u010dnik - odcep Tr\u010dova (MARPROM:388)"}, {"href": "http://www.openstreetmap.org/?mlat=46.5383184&mlon=15.6270635#map=17/46.5383184/15.6270635&layers=T", "name": "Radvanjska - Antoli\u010di\u010deva (MARPROM:139)"}, {"href": "http://www.openstreetmap.org/?mlat=46.5259683&mlon=15.6710559#map=17/46.5259683/15.6710559&layers=T", "name": "Perhav\u010deva ul. - \u0161ola (MARPROM:318)"}, {"href": "http://www.openstreetmap.org/?mlat=46.557783&mlon=15.5662599#map=17/46.557783/15.5662599&layers=T", "name": "Laznica (MARPROM:436)"}, {"href": "http://www.openstreetmap.org/?mlat=46.5578239&mlon=15.5963912#map=17/46.5578239/15.5963912&layers=T", "name": "Marles (MARPROM:151)"}, {"href": "http://www.openstreetmap.org/?mlat=46.5479774&mlon=15.6569501#map=17/46.5479774/15.6569501&layers=T", "name": "Ob gozdu (MARPROM:329)"}, {"href": "http://www.openstreetmap.org/?mlat=46.5522264&mlon=15.6821585#map=17/46.5522264/15.6821585&layers=T", "name": "Zrkovska cesta (MARPROM:120)"}, {"href": "http://www.openstreetmap.org/?mlat=46.5562636&mlon=15.578742#map=17/46.5562636/15.578742&layers=T", "name": "Limbu\u0161 (MARPROM:437)"}, {"href": "http://www.openstreetmap.org/?mlat=46.5551212&mlon=15.6972326#map=17/46.5551212/15.6972326&layers=T", "name": "Lorber (MARPROM:30)"}, {"href": "http://www.openstreetmap.org/?mlat=46.5607138&mlon=15.6579289#map=17/46.5607138/15.6579289&layers=T", "name": "Meljska - Partizanska (MARPROM:171)"}, {"href": "http://www.openstreetmap.org/?mlat=46.5565634&mlon=15.6571079#map=17/46.5565634/15.6571079&layers=T", "name": "Ore\u0161ko nabre\u017eje 2 (MARPROM:22)"}, {"href": "http://www.openstreetmap.org/?mlat=46.5416559&mlon=15.6299335#map=17/46.5416559/15.6299335&layers=T", "name": "Radvanjska - trgovina (MARPROM:138)"}, {"href": "http://www.openstreetmap.org/?mlat=46.5370858&mlon=15.5969732#map=17/46.5370858/15.5969732&layers=T", "name": "Zvezna ulica (MARPROM:242)"}, {"href": "http://www.openstreetmap.org/?mlat=46.5367188&mlon=15.6310874#map=17/46.5367188/15.6310874&layers=T", "name": "Kardeljeva - O\u0160 Tabor 1 (MARPROM:62)"}, {"href": "http://www.openstreetmap.org/?mlat=46.5576506&mlon=15.7240457#map=17/46.5576506/15.7240457&layers=T", "name": "Nebova II (MARPROM:385)"}, {"href": "http://www.openstreetmap.org/?mlat=46.5376194&mlon=15.6204848#map=17/46.5376194/15.6204848&layers=T", "name": "Ul. Poh. odreda - O\u0160 L. Pliber\u0161ek (MARPROM:235)"}, {"href": "http://www.openstreetmap.org/?mlat=46.5404919&mlon=15.6372081#map=17/46.5404919/15.6372081&layers=T", "name": "Gori\u0161ka (MARPROM:59)"}, {"href": "http://www.openstreetmap.org/?mlat=46.5564453&mlon=15.610261#map=17/46.5564453/15.610261&layers=T", "name": "Erjav\u010deva (MARPROM:348)"}, {"href": "http://www.openstreetmap.org/?mlat=46.539791&mlon=15.6062261#map=17/46.539791/15.6062261&layers=T", "name": "Pohorska ul. - Mlada lipa (MARPROM:147)"}, {"href": "http://www.openstreetmap.org/?mlat=46.5225996&mlon=15.6486112#map=17/46.5225996/15.6486112&layers=T", "name": "Tr\u017ea\u0161ka cesta - Obi (MARPROM:218)"}, {"href": "http://www.openstreetmap.org/?mlat=46.5565476&mlon=15.6202923#map=17/46.5565476/15.6202923&layers=T", "name": "Limbu\u0161ka - Pekrska (MARPROM:280)"}, {"href": "http://www.openstreetmap.org/?mlat=46.5485238&mlon=15.5944438#map=17/46.5485238/15.5944438&layers=T", "name": "Pekre - GD (MARPROM:289)"}, {"href": "http://www.openstreetmap.org/?mlat=46.5579656&mlon=15.5658852#map=17/46.5579656/15.5658852&layers=T", "name": "Laznica (MARPROM:399)"}, {"href": "http://www.openstreetmap.org/?mlat=46.5546002&mlon=15.6466549#map=17/46.5546002/15.6466549&layers=T", "name": "Magdalena (MARPROM:51)"}, {"href": "http://www.openstreetmap.org/?mlat=46.5381929&mlon=15.5890241#map=17/46.5381929/15.5890241&layers=T", "name": "Lesjakova 1 (MARPROM:240)"}, {"href": "http://www.openstreetmap.org/?mlat=46.5681124&mlon=15.5919976#map=17/46.5681124/15.5919976&layers=T", "name": "\u010colnarna (MARPROM:252)"}, {"href": "http://www.openstreetmap.org/?mlat=46.5283986&mlon=15.672646#map=17/46.5283986/15.672646&layers=T", "name": "Ptujska - TAM (MARPROM:178)"}, {"href": "http://www.openstreetmap.org/?mlat=46.5513135&mlon=15.6566792#map=17/46.5513135/15.6566792&layers=T", "name": "Nasipna - SNAGA (MARPROM:327)"}, {"href": "http://www.openstreetmap.org/?mlat=46.5295427&mlon=15.6717528#map=17/46.5295427/15.6717528&layers=T", "name": "Ptujska - TAM (MARPROM:84)"}, {"href": "http://www.openstreetmap.org/?mlat=46.5398052&mlon=15.6510034#map=17/46.5398052/15.6510034&layers=T", "name": "\u017dP Tezno (MARPROM:334)"}, {"href": "http://www.openstreetmap.org/?mlat=46.560758&mlon=15.7293428#map=17/46.560758/15.7293428&layers=T", "name": "Ruper\u010de (MARPROM:392)"}, {"href": "http://www.openstreetmap.org/?mlat=46.558575&mlon=15.6508676#map=17/46.558575/15.6508676&layers=T", "name": "CITY center (MARPROM:1)"}, {"href": "http://www.openstreetmap.org/?mlat=46.5575246&mlon=15.6249993#map=17/46.5575246/15.6249993&layers=T", "name": "Dravograjska - Sokolska (MARPROM:163)"}, {"href": "http://www.openstreetmap.org/?mlat=46.5571746&mlon=15.7459389#map=17/46.5571746/15.7459389&layers=T", "name": "Gru\u0161ova 1 (MARPROM:397)"}, {"href": "http://www.openstreetmap.org/?mlat=46.5728038&mlon=15.6592916#map=17/46.5728038/15.6592916&layers=T", "name": "Pod vinogradi - transformator (MARPROM:365)"}, {"href": "http://www.openstreetmap.org/?mlat=46.5587748&mlon=15.6640387#map=17/46.5587748/15.6640387&layers=T", "name": "Ul. kraljevi\u010da Marka (MARPROM:228)"}, {"href": "http://www.openstreetmap.org/?mlat=46.5188095&mlon=15.6343597#map=17/46.5188095/15.6343597&layers=T", "name": "Razvanje - GD (MARPROM:66)"}, {"href": "http://www.openstreetmap.org/?mlat=46.5498059&mlon=15.6941038#map=17/46.5498059/15.6941038&layers=T", "name": "Zrkovci - Na terasi (MARPROM:134)"}, {"href": "http://www.openstreetmap.org/?mlat=46.5623019&mlon=15.6017529#map=17/46.5623019/15.6017529&layers=T", "name": "Lesarska \u0161ola - obra\u010dali\u0161\u010de (MARPROM:284)"}, {"href": "http://www.openstreetmap.org/?mlat=46.5398051&mlon=15.6463444#map=17/46.5398051/15.6463444&layers=T", "name": "Prol. brigad - Titova (MARPROM:87)"}, {"href": "http://www.openstreetmap.org/?mlat=46.5464966&mlon=15.7053835#map=17/46.5464966/15.7053835&layers=T", "name": "Zrkovci - Na gorci 54 (MARPROM:124)"}, {"href": "http://www.openstreetmap.org/?mlat=46.564408&mlon=15.6516455#map=17/46.564408/15.6516455&layers=T", "name": "Pre\u0161ernova - O\u0160 B. Polan\u010di\u010d (MARPROM:353)"}, {"href": "http://www.openstreetmap.org/?mlat=46.5540942&mlon=15.6192399#map=17/46.5540942/15.6192399&layers=T", "name": "Erjav\u010deva - ZD (MARPROM:346)"}, {"href": "http://www.openstreetmap.org/?mlat=46.5236705&mlon=15.7039295#map=17/46.5236705/15.7039295&layers=T", "name": "Dogo\u0161e - GD (MARPROM:128)"}, {"href": "http://www.openstreetmap.org/?mlat=46.5504274&mlon=15.6408432#map=17/46.5504274/15.6408432&layers=T", "name": "Betnavska - \u017dolgarjeva (MARPROM:56)"}, {"href": "http://www.openstreetmap.org/?mlat=46.5284495&mlon=15.6798273#map=17/46.5284495/15.6798273&layers=T", "name": "KS Silvira Tomassini (MARPROM:10)"}, {"href": "http://www.openstreetmap.org/?mlat=46.557276&mlon=15.719727#map=17/46.557276/15.719727&layers=T", "name": "Nebova I (MARPROM:386)"}, {"href": "http://www.openstreetmap.org/?mlat=46.5268966&mlon=15.7000331#map=17/46.5268966/15.7000331&layers=T", "name": "Duple\u0161ka - kanal (MARPROM:298)"}, {"href": "http://www.openstreetmap.org/?mlat=46.5389087&mlon=15.6327981#map=17/46.5389087/15.6327981&layers=T", "name": "Kardeljeva - Knafel\u010deva (MARPROM:74)"}, {"href": "http://www.openstreetmap.org/?mlat=46.5667221&mlon=15.5782074#map=17/46.5667221/15.5782074&layers=T", "name": "Bresternica - po\u0161ta / Brestrnica (MARPROM:254)"}, {"href": "http://www.openstreetmap.org/?mlat=46.5296736&mlon=15.6375232#map=17/46.5296736/15.6375232&layers=T", "name": "Betnavski grad (MARPROM:64)"}, {"href": "http://www.openstreetmap.org/?mlat=46.5507357&mlon=15.6764043#map=17/46.5507357/15.6764043&layers=T", "name": "Veljka Vlahovi\u010da - S31 (MARPROM:306)"}, {"href": "http://www.openstreetmap.org/?mlat=46.5488409&mlon=15.6414745#map=17/46.5488409/15.6414745&layers=T", "name": "Pari\u0161ke komune (MARPROM:343)"}, {"href": "http://www.openstreetmap.org/?mlat=46.5348119&mlon=15.7314614#map=17/46.5348119/15.7314614&layers=T", "name": "Metava - Duplek kri\u017ei\u0161\u010de (MARPROM:38)"}, {"href": "http://www.openstreetmap.org/?mlat=46.6166946&mlon=15.5531177#map=17/46.6166946/15.5531177&layers=T", "name": "Gaj nad Mar. - transformator (MARPROM:263)"}, {"href": "http://www.openstreetmap.org/?mlat=46.5569366&mlon=15.7202447#map=17/46.5569366/15.7202447&layers=T", "name": "Nebova I (MARPROM:390)"}, {"href": "http://www.openstreetmap.org/?mlat=46.5656573&mlon=15.6237732#map=17/46.5656573/15.6237732&layers=T", "name": "Terme Fontana (MARPROM:116)"}, {"href": "http://www.openstreetmap.org/?mlat=46.5449563&mlon=15.6432561#map=17/46.5449563/15.6432561&layers=T", "name": "Ljubljanska - Focheva (MARPROM:213)"}, {"href": "http://www.openstreetmap.org/?mlat=46.6067487&mlon=15.5515997#map=17/46.6067487/15.5515997&layers=T", "name": "Smolnikov mlin (MARPROM:261)"}, {"href": "http://www.openstreetmap.org/?mlat=46.5383759&mlon=15.6122047#map=17/46.5383759/15.6122047&layers=T", "name": "Lackova - Stara lipa (MARPROM:142)"}, {"href": "http://www.openstreetmap.org/?mlat=46.53742&mlon=15.6037901#map=17/46.53742/15.6037901&layers=T", "name": "Pohorska ul. - po\u0161ta (MARPROM:146)"}, {"href": "http://www.openstreetmap.org/?mlat=46.538573&mlon=15.6319916#map=17/46.538573/15.6319916&layers=T", "name": "Kardeljeva - Knafel\u010deva (MARPROM:61)"}, {"href": "http://www.openstreetmap.org/?mlat=46.5568664&mlon=15.610535#map=17/46.5568664/15.610535&layers=T", "name": "Studenci - obra\u010dali\u0161\u010de (MARPROM:153)"}, {"href": "http://www.openstreetmap.org/?mlat=46.5322054&mlon=15.6949493#map=17/46.5322054/15.6949493&layers=T", "name": "Duple\u0161ka - Jar\u010deva (MARPROM:299)"}, {"href": "http://www.openstreetmap.org/?mlat=46.5486752&mlon=15.5940953#map=17/46.5486752/15.5940953&layers=T", "name": "Pekre - GD (MARPROM:148)"}, {"href": "http://www.openstreetmap.org/?mlat=46.5594075&mlon=15.6454542#map=17/46.5594075/15.6454542&layers=T", "name": "Slom\u0161kov trg - Ul. X. oktobra (MARPROM:118)"}, {"href": "http://www.openstreetmap.org/?mlat=46.5451142&mlon=15.6434775#map=17/46.5451142/15.6434775&layers=T", "name": "Ljubljanska - Focheva (MARPROM:225)"}, {"href": "http://www.openstreetmap.org/?mlat=46.5403458&mlon=15.6075056#map=17/46.5403458/15.6075056&layers=T", "name": "Lackova - Mlada lipa (MARPROM:236)"}, {"href": "http://www.openstreetmap.org/?mlat=46.5365333&mlon=15.6372693#map=17/46.5365333/15.6372693&layers=T", "name": "Ljubljanska - stolpnica (MARPROM:215)"}, {"href": "http://www.openstreetmap.org/?mlat=46.5403047&mlon=15.6397546#map=17/46.5403047/15.6397546&layers=T", "name": "Ljubljanska - trgovski center (MARPROM:214)"}, {"href": "http://www.openstreetmap.org/?mlat=46.5404288&mlon=15.622226#map=17/46.5404288/15.622226&layers=T", "name": "Ul. Poh. odreda - O\u0160 G. \u0160iliha (MARPROM:245)"}, {"href": "http://www.openstreetmap.org/?mlat=46.5527477&mlon=15.6457846#map=17/46.5527477/15.6457846&layers=T", "name": "Magdalenski park (MARPROM:6)"}, {"href": "http://www.openstreetmap.org/?mlat=46.5399136&mlon=15.6396446#map=17/46.5399136/15.6396446&layers=T", "name": "Ljubljanska - trgovski center (MARPROM:18)"}, {"href": "http://www.openstreetmap.org/?mlat=46.560525&mlon=15.6621021#map=17/46.560525/15.6621021&layers=T", "name": "Meljska - trgovina (MARPROM:55)"}, {"href": "http://www.openstreetmap.org/?mlat=46.5364568&mlon=15.6884476#map=17/46.5364568/15.6884476&layers=T", "name": "Brezje (MARPROM:107)"}, {"href": "http://www.openstreetmap.org/?mlat=46.5759492&mlon=15.6419599#map=17/46.5759492/15.6419599&layers=T", "name": "Ribni\u0161ko selo - obra\u010dali\u0161\u010de (MARPROM:339)"}, {"href": "http://www.openstreetmap.org/?mlat=46.5564932&mlon=15.6629753#map=17/46.5564932/15.6629753&layers=T", "name": "Ore\u0161ko nabre\u017eje 1 (MARPROM:21)"}, {"href": "http://www.openstreetmap.org/?mlat=46.5417433&mlon=15.6410044#map=17/46.5417433/15.6410044&layers=T", "name": "Prol. brigad - Ferkova (MARPROM:224)"}, {"href": "http://www.openstreetmap.org/?mlat=46.568869&mlon=15.6573816#map=17/46.568869/15.6573816&layers=T", "name": "\u0160ubi\u010deva - vrtec (MARPROM:363)"}, {"href": "http://www.openstreetmap.org/?mlat=46.5150476&mlon=15.7122739#map=17/46.5150476/15.7122739&layers=T", "name": "Dogo\u0161e - obra\u010dali\u0161\u010de (MARPROM:312)"}, {"href": "http://www.openstreetmap.org/?mlat=46.5560516&mlon=15.7112757#map=17/46.5560516/15.7112757&layers=T", "name": "Celestrina (MARPROM:387)"}, {"href": "http://www.openstreetmap.org/?mlat=46.5662319&mlon=15.6329058#map=17/46.5662319/15.6329058&layers=T", "name": "Vrbanska - \u0161ola (MARPROM:212)"}, {"href": "http://www.openstreetmap.org/?mlat=46.5438105&mlon=15.6490454#map=17/46.5438105/15.6490454&layers=T", "name": "Titova - Nasipna (MARPROM:183)"}, {"href": "http://www.openstreetmap.org/?mlat=46.5534259&mlon=15.6439889#map=17/46.5534259/15.6439889&layers=T", "name": "Tabor (MARPROM:4)"}, {"href": "http://www.openstreetmap.org/?mlat=46.5485544&mlon=15.6754761#map=17/46.5485544/15.6754761&layers=T", "name": "Veljka Vlahovi\u010da - trg. center (MARPROM:315)"}, {"href": "http://www.openstreetmap.org/?mlat=46.5273502&mlon=15.7062933#map=17/46.5273502/15.7062933&layers=T", "name": "Sven\u0161kova ulica 40 (MARPROM:131)"}, {"href": "http://www.openstreetmap.org/?mlat=46.554491&mlon=15.6360585#map=17/46.554491/15.6360585&layers=T", "name": "\u017dP Studenci (MARPROM:277)"}, {"href": "http://www.openstreetmap.org/?mlat=46.5681664&mlon=15.6595062#map=17/46.5681664/15.6595062&layers=T", "name": "Nadvoz (MARPROM:364)"}, {"href": "http://www.openstreetmap.org/?mlat=46.5512401&mlon=15.6768426#map=17/46.5512401/15.6768426&layers=T", "name": "Veljka Vlahovi\u010da - S31 (MARPROM:316)"}, {"href": "http://www.openstreetmap.org/?mlat=46.5282269&mlon=15.6750602#map=17/46.5282269/15.6750602&layers=T", "name": "Dogo\u0161ka - vrtec (MARPROM:9)"}, {"href": "http://www.openstreetmap.org/?mlat=46.5461243&mlon=15.5994182#map=17/46.5461243/15.5994182&layers=T", "name": "Lackova - Na gorco (MARPROM:237)"}, {"href": "http://www.openstreetmap.org/?mlat=46.5547133&mlon=15.6666954#map=17/46.5547133/15.6666954&layers=T", "name": "\u010cufarjeva - TVD Partizan (MARPROM:26)"}, {"href": "http://www.openstreetmap.org/?mlat=46.5404058&mlon=15.6219795#map=17/46.5404058/15.6219795&layers=T", "name": "Ul. Poh. odreda - O\u0160 G. \u0160iliha (MARPROM:234)"}, {"href": "http://www.openstreetmap.org/?mlat=46.5782779&mlon=15.6671452#map=17/46.5782779/15.6671452&layers=T", "name": "Ko\u0161aki - stiskalnica (MARPROM:368)"}, {"href": "http://www.openstreetmap.org/?mlat=46.5734952&mlon=15.6171879#map=17/46.5734952/15.6171879&layers=T", "name": "Kamnica - \u0161ola (MARPROM:209)"}, {"href": "http://www.openstreetmap.org/?mlat=46.57407&mlon=15.61256#map=17/46.57407/15.61256&layers=T", "name": "Kamnica - trgovina (MARPROM:198)"}, {"href": "http://www.openstreetmap.org/?mlat=46.5427683&mlon=15.6310901#map=17/46.5427683/15.6310901&layers=T", "name": "Radvanjska - trgovina (MARPROM:11)"}, {"href": "http://www.openstreetmap.org/?mlat=46.5431966&mlon=15.6241646#map=17/46.5431966/15.6241646&layers=T", "name": "Nova vas 2 (MARPROM:246)"}, {"href": "http://www.openstreetmap.org/?mlat=46.5367473&mlon=15.6313345#map=17/46.5367473/15.6313345&layers=T", "name": "Kardeljeva - O\u0160 Tabor 1 (MARPROM:73)"}, {"href": "http://www.openstreetmap.org/?mlat=46.5423506&mlon=15.6572797#map=17/46.5423506/15.6572797&layers=T", "name": "Makedonska (MARPROM:331)"}, {"href": "http://www.openstreetmap.org/?mlat=46.6118785&mlon=15.5468549#map=17/46.6118785/15.5468549&layers=T", "name": "Gaj nad Mar. - \u0160iker (MARPROM:266)"}, {"href": "http://www.openstreetmap.org/?mlat=46.5737607&mlon=15.612403#map=17/46.5737607/15.612403&layers=T", "name": "Kamnica - trgovina (MARPROM:207)"}, {"href": "http://www.openstreetmap.org/?mlat=46.5564635&mlon=15.6916171#map=17/46.5564635/15.6916171&layers=T", "name": "Kova\u010di\u010d (MARPROM:45)"}, {"href": "http://www.openstreetmap.org/?mlat=46.5334898&mlon=15.6295585#map=17/46.5334898/15.6295585&layers=T", "name": "Kardeljeva - Bor\u0161tnikova (MARPROM:63)"}, {"href": "http://www.openstreetmap.org/?mlat=46.5302435&mlon=15.6462994#map=17/46.5302435/15.6462994&layers=T", "name": "Tr\u017ea\u0161ka cesta - Semenarna (MARPROM:220)"}, {"href": "http://www.openstreetmap.org/?mlat=46.5513903&mlon=15.743769#map=17/46.5513903/15.743769&layers=T", "name": "Zimica - odcep (MARPROM:396)"}, {"href": "http://www.openstreetmap.org/?mlat=46.5667718&mlon=15.578986#map=17/46.5667718/15.578986&layers=T", "name": "Bresternica - po\u0161ta / Brestrnica (MARPROM:256)"}, {"href": "http://www.openstreetmap.org/?mlat=46.5580562&mlon=15.6826159#map=17/46.5580562/15.6826159&layers=T", "name": "Meljski hrib - most (MARPROM:28)"}, {"href": "http://www.openstreetmap.org/?mlat=46.5467052&mlon=15.6394559#map=17/46.5467052/15.6394559&layers=T", "name": "Betnavska - Focheva (MARPROM:78)"}, {"href": "http://www.openstreetmap.org/?mlat=46.5342902&mlon=15.6587483#map=17/46.5342902/15.6587483&layers=T", "name": "Zagreb\u0161ka - Kovinar (MARPROM:335)"}, {"href": "http://www.openstreetmap.org/?mlat=46.5546794&mlon=15.659827#map=17/46.5546794/15.659827&layers=T", "name": "Greenwich (MARPROM:49)"}, {"href": "http://www.openstreetmap.org/?mlat=46.584015&mlon=15.6153452#map=17/46.584015/15.6153452&layers=T", "name": "Cesta v Ro\u0161poh 115 (MARPROM:200)"}, {"href": "http://www.openstreetmap.org/?mlat=46.5462012&mlon=15.639181#map=17/46.5462012/15.639181&layers=T", "name": "Betnavska - Focheva (MARPROM:57)"}, {"href": "http://www.openstreetmap.org/?mlat=46.5153321&mlon=15.7174997#map=17/46.5153321/15.7174997&layers=T", "name": "Zg. Duplek - obra\u010dali\u0161\u010de (MARPROM:311)"}, {"href": "http://www.openstreetmap.org/?mlat=46.5509239&mlon=15.6643553#map=17/46.5509239/15.6643553&layers=T", "name": "Pokopali\u0161\u010de Pobre\u017eje (MARPROM:103)"}, {"href": "http://www.openstreetmap.org/?mlat=46.5649251&mlon=15.6243513#map=17/46.5649251/15.6243513&layers=T", "name": "Terme Fontana (MARPROM:358)"}, {"href": "http://www.openstreetmap.org/?mlat=46.5372043&mlon=15.6035144#map=17/46.5372043/15.6035144&layers=T", "name": "Pohorska ul. - po\u0161ta (MARPROM:144)"}, {"href": "http://www.openstreetmap.org/?mlat=46.5598401&mlon=15.6561071#map=17/46.5598401/15.6561071&layers=T", "name": "AP Mlinska (MARPROM:68)"}, {"href": "http://www.openstreetmap.org/?mlat=46.5234643&mlon=15.7052176#map=17/46.5234643/15.7052176&layers=T", "name": "Duple\u0161ka cesta 245 (MARPROM:130)"}, {"href": "http://www.openstreetmap.org/?mlat=46.6017272&mlon=15.6211503#map=17/46.6017272/15.6211503&layers=T", "name": "Ro\u0161poh - obra\u010dali\u0161\u010de (MARPROM:203)"}, {"href": "http://www.openstreetmap.org/?mlat=46.5447726&mlon=15.6190603#map=17/46.5447726/15.6190603&layers=T", "name": "Vrtnarska - Qlandia (MARPROM:166)"}, {"href": "http://www.openstreetmap.org/?mlat=46.5896616&mlon=15.558171#map=17/46.5896616/15.558171&layers=T", "name": "Ru\u0161nikova \u017eaga (MARPROM:260)"}, {"href": "http://www.openstreetmap.org/?mlat=46.55671&mlon=15.5782996#map=17/46.55671/15.5782996&layers=T", "name": "Limbu\u0161 (MARPROM:398)"}, {"href": "http://www.openstreetmap.org/?mlat=46.6118195&mlon=15.5469595#map=17/46.6118195/15.5469595&layers=T", "name": "Gaj nad Mar. - \u0160iker (MARPROM:262)"}, {"href": "http://www.openstreetmap.org/?mlat=46.5603885&mlon=15.6303622#map=17/46.5603885/15.6303622&layers=T", "name": "Koro\u0161ka vrata (MARPROM:359)"}, {"href": "http://www.openstreetmap.org/?mlat=46.5448855&mlon=15.6764732#map=17/46.5448855/15.6764732&layers=T", "name": "Cesta XIV. divizije - vrtnarstvo (MARPROM:302)"}, {"href": "http://www.openstreetmap.org/?mlat=46.5312089&mlon=15.6652755#map=17/46.5312089/15.6652755&layers=T", "name": "Zagreb\u0161ka - \u0160erbinek (MARPROM:336)"}, {"href": "http://www.openstreetmap.org/?mlat=46.5454194&mlon=15.6205884#map=17/46.5454194/15.6205884&layers=T", "name": "Prol. brigad - rondo (MARPROM:232)"}, {"href": "http://www.openstreetmap.org/?mlat=46.5414255&mlon=15.6484224#map=17/46.5414255/15.6484224&layers=T", "name": "Titova - Prol. brigad (MARPROM:182)"}, {"href": "http://www.openstreetmap.org/?mlat=46.5530686&mlon=15.7048432#map=17/46.5530686/15.7048432&layers=T", "name": "Male\u010dnik - odcep Tr\u010dova (MARPROM:43)"}, {"href": "http://www.openstreetmap.org/?mlat=46.5977967&mlon=15.6196984#map=17/46.5977967/15.6196984&layers=T", "name": "Ro\u0161poh - Hojnik (MARPROM:202)"}, {"href": "http://www.openstreetmap.org/?mlat=46.5458603&mlon=15.6341259#map=17/46.5458603/15.6341259&layers=T", "name": "Radvanjska - voja\u0161nica (MARPROM:186)"}, {"href": "http://www.openstreetmap.org/?mlat=46.5255285&mlon=15.6789607#map=17/46.5255285/15.6789607&layers=T", "name": "Tezno dom star. ob\u010danov (MARPROM:83)"}, {"href": "http://www.openstreetmap.org/?mlat=46.5524384&mlon=15.6229695#map=17/46.5524384/15.6229695&layers=T", "name": "Dravograjska - Poljane (MARPROM:164)"}, {"href": "http://www.openstreetmap.org/?mlat=46.5432093&mlon=15.6330127#map=17/46.5432093/15.6330127&layers=T", "name": "Prol. brigad - Kardeljeva (MARPROM:89)"}, {"href": "http://www.openstreetmap.org/?mlat=46.5461372&mlon=15.6723849#map=17/46.5461372/15.6723849&layers=T", "name": "Cesta XIV. divizije - O\u0160 D. Kobala (MARPROM:104)"}, {"href": "http://www.openstreetmap.org/?mlat=46.5486423&mlon=15.6454076#map=17/46.5486423/15.6454076&layers=T", "name": "Ljubljanska - Pari\u0161ke komune (MARPROM:12)"}, {"href": "http://www.openstreetmap.org/?mlat=46.5376372&mlon=15.6206362#map=17/46.5376372/15.6206362&layers=T", "name": "Ul. Poh. odreda - O\u0160 L. Pliber\u0161ek (MARPROM:244)"}, {"href": "http://www.openstreetmap.org/?mlat=46.5414271&mlon=15.6397477#map=17/46.5414271/15.6397477&layers=T", "name": "Prol. brigad - Ljubljanska (MARPROM:88)"}, {"href": "http://www.openstreetmap.org/?mlat=46.5575713&mlon=15.6442915#map=17/46.5575713/15.6442915&layers=T", "name": "Koro\u0161ka - Po\u0161tna (MARPROM:100)"}, {"href": "http://www.openstreetmap.org/?mlat=46.568701&mlon=15.648872#map=17/46.568701/15.648872&layers=T", "name": "Kli\u010dek (MARPROM:355)"}, {"href": "http://www.openstreetmap.org/?mlat=46.5542438&mlon=15.6769781#map=17/46.5542438/15.6769781&layers=T", "name": "Zrkovska - GD (MARPROM:119)"}, {"href": "http://www.openstreetmap.org/?mlat=46.5727658&mlon=15.5685426#map=17/46.5727658/15.5685426&layers=T", "name": "\u0160ober - \u017dunko (MARPROM:258)"}, {"href": "http://www.openstreetmap.org/?mlat=46.5565019&mlon=15.6044299#map=17/46.5565019/15.6044299&layers=T", "name": "Limbu\u0161ka c. - Lesarska (MARPROM:283)"}, {"href": "http://www.openstreetmap.org/?mlat=46.5258226&mlon=15.7005508#map=17/46.5258226/15.7005508&layers=T", "name": "Duple\u0161ka - kanal (MARPROM:109)"}, {"href": "http://www.openstreetmap.org/?mlat=46.5437662&mlon=15.6527237#map=17/46.5437662/15.6527237&layers=T", "name": "Belokranjska ulica (MARPROM:323)"}, {"href": "http://www.openstreetmap.org/?mlat=46.5852828&mlon=15.5685782#map=17/46.5852828/15.5685782&layers=T", "name": "\u0160ober - dvor (MARPROM:269)"}, {"href": "http://www.openstreetmap.org/?mlat=46.6067118&mlon=15.551479#map=17/46.6067118/15.551479&layers=T", "name": "Smolnikov mlin (MARPROM:267)"}, {"href": "http://www.openstreetmap.org/?mlat=46.5613684&mlon=15.6361796#map=17/46.5613684/15.6361796&layers=T", "name": "Gosposvetska - Vrbanska (MARPROM:113)"}, {"href": "http://www.openstreetmap.org/?mlat=46.5602306&mlon=15.6309611#map=17/46.5602306/15.6309611&layers=T", "name": "Koro\u0161ka vrata (MARPROM:376)"}, {"href": "http://www.openstreetmap.org/?mlat=46.5702901&mlon=15.6273919#map=17/46.5702901/15.6273919&layers=T", "name": "Vrbanska - vodovod (MARPROM:195)"}, {"href": "http://www.openstreetmap.org/?mlat=46.5499609&mlon=15.6366874#map=17/46.5499609/15.6366874&layers=T", "name": "Koresova - dvorana Tabor (MARPROM:229)"}, {"href": "http://www.openstreetmap.org/?mlat=46.5381226&mlon=15.6356987#map=17/46.5381226/15.6356987&layers=T", "name": "Betnavska - Knafel\u010deva (MARPROM:60)"}, {"href": "http://www.openstreetmap.org/?mlat=46.5711217&mlon=15.6125466#map=17/46.5711217/15.6125466&layers=T", "name": "Kamnica - kri\u017ei\u0161\u010de / Kamnica/Mar.K (MARPROM:250)"}, {"href": "http://www.openstreetmap.org/?mlat=46.5573724&mlon=15.6255677#map=17/46.5573724/15.6255677&layers=T", "name": "Dravograjska - Sokolska (MARPROM:95)"}, {"href": "http://www.openstreetmap.org/?mlat=46.5589342&mlon=15.6423777#map=17/46.5589342/15.6423777&layers=T", "name": "Oro\u017enova 9 (MARPROM:117)"}, {"href": "http://www.openstreetmap.org/?mlat=46.5748542&mlon=15.6633628#map=17/46.5748542/15.6633628&layers=T", "name": "Ko\u0161a\u0161ki dol - V zavoju (MARPROM:366)"}, {"href": "http://www.openstreetmap.org/?mlat=46.5493245&mlon=15.6297517#map=17/46.5493245/15.6297517&layers=T", "name": "Engelsova - \u0160arhova (MARPROM:248)"}, {"href": "http://www.openstreetmap.org/?mlat=46.5570768&mlon=15.7456815#map=17/46.5570768/15.7456815&layers=T", "name": "Gru\u0161ova 1 (MARPROM:379)"}, {"href": "http://www.openstreetmap.org/?mlat=46.554569&mlon=15.5527429#map=17/46.554569/15.5527429&layers=T", "name": "Bistrica pri Limbu\u0161u (MARPROM:400)"}, {"href": "http://www.openstreetmap.org/?mlat=46.5724681&mlon=15.6128051#map=17/46.5724681/15.6128051&layers=T", "name": "Kamnica - po\u0161ta (MARPROM:208)"}, {"href": "http://www.openstreetmap.org/?mlat=46.5584453&mlon=15.6814196#map=17/46.5584453/15.6814196&layers=T", "name": "Meljski hrib - most (MARPROM:46)"}, {"href": "http://www.openstreetmap.org/?mlat=46.5190676&mlon=15.6912795#map=17/46.5190676/15.6912795&layers=T", "name": "Pokopali\u0161\u010de Dobrava - vhod (MARPROM:81)"}, {"href": "http://www.openstreetmap.org/?mlat=46.5496633&mlon=15.6946336#map=17/46.5496633/15.6946336&layers=T", "name": "Zrkovci - Na terasi (MARPROM:122)"}, {"href": "http://www.openstreetmap.org/?mlat=46.5544633&mlon=15.7362589#map=17/46.5544633/15.7362589&layers=T", "name": "Knezar (MARPROM:394)"}, {"href": "http://www.openstreetmap.org/?mlat=46.5593169&mlon=15.6639449#map=17/46.5593169/15.6639449&layers=T", "name": "Ul. kraljevi\u010da Marka (MARPROM:20)"}, {"href": "http://www.openstreetmap.org/?mlat=46.5736767&mlon=15.6445898#map=17/46.5736767/15.6445898&layers=T", "name": "Ribnik 1 (MARPROM:356)"}, {"href": "http://www.openstreetmap.org/?mlat=46.5475602&mlon=15.6747678#map=17/46.5475602/15.6747678&layers=T", "name": "Veljka Vlahovi\u010da - trg. center (MARPROM:307)"}, {"href": "http://www.openstreetmap.org/?mlat=46.5439899&mlon=15.6344328#map=17/46.5439899/15.6344328&layers=T", "name": "Kardeljeva - igri\u0161\u010de (MARPROM:191)"}, {"href": "http://www.openstreetmap.org/?mlat=46.5348118&mlon=15.7316868#map=17/46.5348118/15.7316868&layers=T", "name": "Metava - Duplek kri\u017ei\u0161\u010de (MARPROM:36)"}, {"href": "http://www.openstreetmap.org/?mlat=46.5597246&mlon=15.6689096#map=17/46.5597246/15.6689096&layers=T", "name": "Melje - obra\u010dali\u0161\u010de (MARPROM:19)"}, {"href": "http://www.openstreetmap.org/?mlat=46.553599&mlon=15.6240915#map=17/46.553599/15.6240915&layers=T", "name": "Dravograjska - Poljane (MARPROM:94)"}, {"href": "http://www.openstreetmap.org/?mlat=46.574223&mlon=15.6224869#map=17/46.574223/15.6224869&layers=T", "name": "Kamnica - hipodrom (MARPROM:196)"}, {"href": "http://www.openstreetmap.org/?mlat=46.5473249&mlon=15.6258455#map=17/46.5473249/15.6258455&layers=T", "name": "Engelsova - voja\u0161nica (MARPROM:247)"}, {"href": "http://www.openstreetmap.org/?mlat=46.5516962&mlon=15.6642985#map=17/46.5516962/15.6642985&layers=T", "name": "Osojnikova (MARPROM:305)"}, {"href": "http://www.openstreetmap.org/?mlat=46.5474595&mlon=15.5939451#map=17/46.5474595/15.5939451&layers=T", "name": "Pekre - trgovina (MARPROM:238)"}, {"href": "http://www.openstreetmap.org/?mlat=46.5538215&mlon=15.6388965#map=17/46.5538215/15.6388965&layers=T", "name": "Valvasorjeva - O\u0160 Maks Durjava (MARPROM:276)"}, {"href": "http://www.openstreetmap.org/?mlat=46.5517456&mlon=15.6212786#map=17/46.5517456/15.6212786&layers=T", "name": "\u0160arhova - po\u0161ta (MARPROM:345)"}, {"href": "http://www.openstreetmap.org/?mlat=46.5656325&mlon=15.6507149#map=17/46.5656325/15.6507149&layers=T", "name": "Tom\u0161icev drevored (MARPROM:354)"}, {"href": "http://www.openstreetmap.org/?mlat=46.5494353&mlon=15.6370066#map=17/46.5494353/15.6370066&layers=T", "name": "Gorkega - dvorana Tabor (MARPROM:185)"}, {"href": "http://www.openstreetmap.org/?mlat=46.5895566&mlon=15.5581652#map=17/46.5895566/15.5581652&layers=T", "name": "Ru\u0161nikova \u017eaga (MARPROM:268)"}, {"href": "http://www.openstreetmap.org/?mlat=46.5571913&mlon=15.6166151#map=17/46.5571913/15.6166151&layers=T", "name": "Limbu\u0161ka 47 (MARPROM:281)"}, {"href": "http://www.openstreetmap.org/?mlat=46.5564648&mlon=15.6912349#map=17/46.5564648/15.6912349&layers=T", "name": "Kova\u010di\u010d (MARPROM:29)"}, {"href": "http://www.openstreetmap.org/?mlat=46.541654&mlon=15.5902436#map=17/46.541654/15.5902436&layers=T", "name": "Bezjakova (MARPROM:239)"}, {"href": "http://www.openstreetmap.org/?mlat=46.517436&mlon=15.7087923#map=17/46.517436/15.7087923&layers=T", "name": "Dogo\u0161e - polje (MARPROM:313)"}, {"href": "http://www.openstreetmap.org/?mlat=46.5618591&mlon=15.6568471#map=17/46.5618591/15.6568471&layers=T", "name": "\u017dP spomenik (MARPROM:374)"}, {"href": "http://www.openstreetmap.org/?mlat=46.5544854&mlon=15.6735794#map=17/46.5544854/15.6735794&layers=T", "name": "\u010cufarjeva - dom st. ob\u010danov (MARPROM:27)"}, {"href": "http://www.openstreetmap.org/?mlat=46.5587036&mlon=15.641487#map=17/46.5587036/15.641487&layers=T", "name": "Strossmayerjeva (MARPROM:99)"}, {"href": "http://www.openstreetmap.org/?mlat=46.5454525&mlon=15.6527869#map=17/46.5454525/15.6527869&layers=T", "name": "Nasipna - Cizerl (MARPROM:333)"}, {"href": "http://www.openstreetmap.org/?mlat=46.5543655&mlon=15.7363608#map=17/46.5543655/15.7363608&layers=T", "name": "Knezar (MARPROM:382)"}, {"href": "http://www.openstreetmap.org/?mlat=46.5250478&mlon=15.6781844#map=17/46.5250478/15.6781844&layers=T", "name": "Tezno dom star. ob\u010danov (MARPROM:295)"}, {"href": "http://www.openstreetmap.org/?mlat=46.5523192&mlon=15.6821052#map=17/46.5523192/15.6821052&layers=T", "name": "Zrkovska cesta (MARPROM:136)"}, {"href": "http://www.openstreetmap.org/?mlat=46.5565196&mlon=15.6282054#map=17/46.5565196/15.6282054&layers=T", "name": "Valvasorjeva - transformator (MARPROM:156)"}, {"href": "http://www.openstreetmap.org/?mlat=46.5794149&mlon=15.6138046#map=17/46.5794149/15.6138046&layers=T", "name": "Cesta v Ro\u0161poh 65 (MARPROM:199)"}, {"href": "http://www.openstreetmap.org/?mlat=46.5331366&mlon=15.6454221#map=17/46.5331366/15.6454221&layers=T", "name": "Tr\u017ea\u0161ka cesta - ELKO (MARPROM:221)"}, {"href": "http://www.openstreetmap.org/?mlat=46.5659221&mlon=15.6334877#map=17/46.5659221/15.6334877&layers=T", "name": "Vrbanska - \u0161ola (MARPROM:194)"}, {"href": "http://www.openstreetmap.org/?mlat=46.5528583&mlon=15.7054427#map=17/46.5528583/15.7054427&layers=T", "name": "Male\u010dnik - odcep Tr\u010dova (MARPROM:31)"}, {"href": "http://www.openstreetmap.org/?mlat=46.5873663&mlon=15.6166891#map=17/46.5873663/15.6166891&layers=T", "name": "Ro\u0161poh odcep Urban (MARPROM:201)"}, {"href": "http://www.openstreetmap.org/?mlat=46.5278587&mlon=15.6819862#map=17/46.5278587/15.6819862&layers=T", "name": "KS Silvira Tomassini (MARPROM:180)"}, {"href": "http://www.openstreetmap.org/?mlat=46.5542975&mlon=15.5523958#map=17/46.5542975/15.5523958&layers=T", "name": "Bistrica pri Limbu\u0161u (MARPROM:435)"}, {"href": "http://www.openstreetmap.org/?mlat=46.5154355&mlon=15.6357601#map=17/46.5154355/15.6357601&layers=T", "name": "Razvanje - obra\u010dali\u0161\u010de (MARPROM:67)"}, {"href": "http://www.openstreetmap.org/?mlat=46.5167383&mlon=15.7095863#map=17/46.5167383/15.7095863&layers=T", "name": "Dogo\u0161e - polje (MARPROM:309)"}, {"href": "http://www.openstreetmap.org/?mlat=46.5502043&mlon=15.7405906#map=17/46.5502043/15.7405906&layers=T", "name": "Metava - odcep (MARPROM:381)"}, {"href": "http://www.openstreetmap.org/?mlat=46.5539762&mlon=15.6658208#map=17/46.5539762/15.6658208&layers=T", "name": "Osojnikova - TVD Partizan (MARPROM:101)"}, {"href": "http://www.openstreetmap.org/?mlat=46.5576789&mlon=15.6441087#map=17/46.5576789/15.6441087&layers=T", "name": "Koro\u0161ka - Po\u0161tna (MARPROM:17)"}, {"href": "http://www.openstreetmap.org/?mlat=46.5319137&mlon=15.6639952#map=17/46.5319137/15.6639952&layers=T", "name": "Zagreb\u0161ka - \u0160erbinek (MARPROM:320)"}, {"href": "http://www.openstreetmap.org/?mlat=46.5496437&mlon=15.7003866#map=17/46.5496437/15.7003866&layers=T", "name": "Zrkovci - obra\u010dali\u0161\u010de (MARPROM:123)"}, {"href": "http://www.openstreetmap.org/?mlat=46.5620678&mlon=15.6495514#map=17/46.5620678/15.6495514&layers=T", "name": "Krekova - ob\u010dina (MARPROM:14)"}, {"href": "http://www.openstreetmap.org/?mlat=46.5701758&mlon=15.6007031#map=17/46.5701758/15.6007031&layers=T", "name": "Mariborski otok - HE (MARPROM:251)"}, {"href": "http://www.openstreetmap.org/?mlat=46.5554254&mlon=15.6967214#map=17/46.5554254/15.6967214&layers=T", "name": "Lorber (MARPROM:44)"}, {"href": "http://www.openstreetmap.org/?mlat=46.5268963&mlon=15.6723476#map=17/46.5268963/15.6723476&layers=T", "name": "Kav\u010di\u010deva (MARPROM:319)"}, {"href": "http://www.openstreetmap.org/?mlat=46.5361053&mlon=15.6598558#map=17/46.5361053/15.6598558&layers=T", "name": "Ptujska - Kovinar (MARPROM:175)"}, {"href": "http://www.openstreetmap.org/?mlat=46.5519123&mlon=15.6283924#map=17/46.5519123/15.6283924&layers=T", "name": "Na Poljanah - Planet TU\u0160 (MARPROM:344)"}, {"href": "http://www.openstreetmap.org/?mlat=46.5671001&mlon=15.6592208#map=17/46.5671001/15.6592208&layers=T", "name": "\u0160entiljska - Medved (MARPROM:362)"}, {"href": "http://www.openstreetmap.org/?mlat=46.5397049&mlon=15.7328695#map=17/46.5397049/15.7328695&layers=T", "name": "Metava - obra\u010dali\u0161\u010de (MARPROM:37)"}, {"href": "http://www.openstreetmap.org/?mlat=46.5570623&mlon=15.6170387#map=17/46.5570623/15.6170387&layers=T", "name": "Limbu\u0161ka 47 (MARPROM:154)"}, {"href": "http://www.openstreetmap.org/?mlat=46.5606669&mlon=15.6629621#map=17/46.5606669/15.6629621&layers=T", "name": "Meljska - trgovina (MARPROM:170)"}, {"href": "http://www.openstreetmap.org/?mlat=46.5551268&mlon=15.6655235#map=17/46.5551268/15.6655235&layers=T", "name": "TVD Partizan (MARPROM:48)"}, {"href": "http://www.openstreetmap.org/?mlat=46.5841901&mlon=15.6152352#map=17/46.5841901/15.6152352&layers=T", "name": "Cesta v Ro\u0161poh 115 (MARPROM:205)"}, {"href": "http://www.openstreetmap.org/?mlat=46.5265526&mlon=15.6482143#map=17/46.5265526/15.6482143&layers=T", "name": "Tr\u017ea\u0161ka cesta - Carinarnica (MARPROM:219)"}, {"href": "http://www.openstreetmap.org/?mlat=46.5564713&mlon=15.7333079#map=17/46.5564713/15.7333079&layers=T", "name": "Kronaveter (MARPROM:383)"}, {"href": "http://www.openstreetmap.org/?mlat=46.5595666&mlon=15.7472637#map=17/46.5595666/15.7472637&layers=T", "name": "Gru\u0161ova - obra\u010dali\u0161\u010de (MARPROM:378)"}, {"href": "http://www.openstreetmap.org/?mlat=46.5512319&mlon=15.613569#map=17/46.5512319/15.613569&layers=T", "name": "Korbunova - Kamen\u0161kova (MARPROM:169)"}, {"href": "http://www.openstreetmap.org/?mlat=46.5443789&mlon=15.6286353#map=17/46.5443789/15.6286353&layers=T", "name": "Prol. brigad - lekarna (MARPROM:90)"}, {"href": "http://www.openstreetmap.org/?mlat=46.5362378&mlon=15.6206955#map=17/46.5362378/15.6206955&layers=T", "name": "Streli\u0161ka - Ul. Pohorskega odreda (MARPROM:141)"}, {"href": "http://www.openstreetmap.org/?mlat=46.5506342&mlon=15.6392166#map=17/46.5506342/15.6392166&layers=T", "name": "Gorkega - Preradovi\u010deva (MARPROM:16)"}, {"href": "http://www.openstreetmap.org/?mlat=46.5591626&mlon=15.6354279#map=17/46.5591626/15.6354279&layers=T", "name": "Koro\u0161ka - trgovina (MARPROM:360)"}, {"href": "http://www.openstreetmap.org/?mlat=46.5442178&mlon=15.6779#map=17/46.5442178/15.6779&layers=T", "name": "Cesta XIV. divizije - vrtnarstvo (MARPROM:105)"}, {"href": "http://www.openstreetmap.org/?mlat=46.5478033&mlon=15.7149177#map=17/46.5478033/15.7149177&layers=T", "name": "Tr\u010dova 31a (MARPROM:41)"}, {"href": "http://www.openstreetmap.org/?mlat=46.5524749&mlon=15.7083137#map=17/46.5524749/15.7083137&layers=T", "name": "Male\u010dnik - trgovina (MARPROM:42)"}, {"href": "http://www.openstreetmap.org/?mlat=46.5618719&mlon=15.6332989#map=17/46.5618719/15.6332989&layers=T", "name": "Gosposvetska - Turnerjeva (MARPROM:114)"}, {"href": "http://www.openstreetmap.org/?mlat=46.5379493&mlon=15.6269#map=17/46.5379493/15.6269&layers=T", "name": "Radvanjska - Antoli\u010di\u010deva (MARPROM:190)"}, {"href": "http://www.openstreetmap.org/?mlat=46.5533637&mlon=15.6174591#map=17/46.5533637/15.6174591&layers=T", "name": "\u0160arhova - obra\u010dali\u0161\u010de (MARPROM:160)"}, {"href": "http://www.openstreetmap.org/?mlat=46.5239486&mlon=15.7045987#map=17/46.5239486/15.7045987&layers=T", "name": "Duple\u0161ka cesta 239 (MARPROM:127)"}, {"href": "http://www.openstreetmap.org/?mlat=46.5764342&mlon=15.6575508#map=17/46.5764342/15.6575508&layers=T", "name": "\u0160entiljska - Po\u010dehovska / Po\u010dehova TSN (MARPROM:371)"}, {"href": "http://www.openstreetmap.org/?mlat=46.5490402&mlon=15.6211074#map=17/46.5490402/15.6211074&layers=T", "name": "Dravograjska - I. internacionale (MARPROM:165)"}, {"href": "http://www.openstreetmap.org/?mlat=46.5556492&mlon=15.7106504#map=17/46.5556492/15.7106504&layers=T", "name": "Celestrina (MARPROM:389)"}, {"href": "http://www.openstreetmap.org/?mlat=46.5705986&mlon=15.658074#map=17/46.5705986/15.658074&layers=T", "name": "\u0160entiljska - TMI Ko\u0161aki (MARPROM:372)"}, {"href": "http://www.openstreetmap.org/?mlat=46.5465022&mlon=15.6150791#map=17/46.5465022/15.6150791&layers=T", "name": "Ilichova - RTV (MARPROM:167)"}, {"href": "http://www.openstreetmap.org/?mlat=46.5739856&mlon=15.6436927#map=17/46.5739856/15.6436927&layers=T", "name": "Ribnik 1 (MARPROM:340)"}, {"href": "http://www.openstreetmap.org/?mlat=46.5322112&mlon=15.6947403#map=17/46.5322112/15.6947403&layers=T", "name": "Duple\u0161ka - Jar\u010deva (MARPROM:108)"}, {"href": "http://www.openstreetmap.org/?mlat=46.5260032&mlon=15.7015657#map=17/46.5260032/15.7015657&layers=T", "name": "Duple\u0161ka - kanal (MARPROM:308)"}, {"href": "http://www.openstreetmap.org/?mlat=46.5572485&mlon=15.6112667#map=17/46.5572485/15.6112667&layers=T", "name": "Studenci - obra\u010dali\u0161\u010de (MARPROM:287)"}, {"href": "http://www.openstreetmap.org/?mlat=46.5268854&mlon=15.6871943#map=17/46.5268854/15.6871943&layers=T", "name": "Tezenska Dobrava - obra\u010dali\u0161\u010de (MARPROM:181)"}, {"href": "http://www.openstreetmap.org/?mlat=46.5655778&mlon=15.623599#map=17/46.5655778/15.623599&layers=T", "name": "Terme Fontana (MARPROM:377)"}, {"href": "http://www.openstreetmap.org/?mlat=46.5216014&mlon=15.7056114#map=17/46.5216014/15.7056114&layers=T", "name": "Duple\u0161ka cesta 255 (MARPROM:129)"}, {"href": "http://www.openstreetmap.org/?mlat=46.553107&mlon=15.6464492#map=17/46.553107/15.6464492&layers=T", "name": "Ljubljanska - UKC (MARPROM:15)"}, {"href": "http://www.openstreetmap.org/?mlat=46.5575451&mlon=15.6477481#map=17/46.5575451/15.6477481&layers=T", "name": "Kneza Koclja - Vetrinjska (MARPROM:2)"}, {"href": "http://www.openstreetmap.org/?mlat=46.544603&mlon=15.6488038#map=17/46.544603/15.6488038&layers=T", "name": "Titova - Nasipna (MARPROM:172)"}, {"href": "http://www.openstreetmap.org/?mlat=46.5334392&mlon=15.6654352#map=17/46.5334392/15.6654352&layers=T", "name": "Ptujska - Avtocommerce (MARPROM:7)"}, {"href": "http://www.openstreetmap.org/?mlat=46.5405656&mlon=15.6373826#map=17/46.5405656/15.6373826&layers=T", "name": "Gori\u0161ka (MARPROM:76)"}, {"href": "http://www.openstreetmap.org/?mlat=46.5593524&mlon=15.6347551#map=17/46.5593524/15.6347551&layers=T", "name": "Koro\u0161ka - trgovina (MARPROM:375)"}, {"href": "http://www.openstreetmap.org/?mlat=46.571603&mlon=15.6136052#map=17/46.571603/15.6136052&layers=T", "name": "Kamnica - kri\u017ei\u0161\u010de (MARPROM:275)"}, {"href": "http://www.openstreetmap.org/?mlat=46.530241&mlon=15.637018#map=17/46.530241/15.637018&layers=T", "name": "Betnavski grad (MARPROM:71)"}, {"href": "http://www.openstreetmap.org/?mlat=46.5476982&mlon=15.7149298#map=17/46.5476982/15.7149298&layers=T", "name": "Tr\u010dova 31a (MARPROM:33)"}, {"href": "http://www.openstreetmap.org/?mlat=46.543808&mlon=15.6528597#map=17/46.543808/15.6528597&layers=T", "name": "Belokranjska ulica (MARPROM:332)"}, {"href": "http://www.openstreetmap.org/?mlat=46.5437557&mlon=15.624331#map=17/46.5437557/15.624331&layers=T", "name": "Nova vas 2 (MARPROM:233)"}, {"href": "http://www.openstreetmap.org/?mlat=46.5700029&mlon=15.6277826#map=17/46.5700029/15.6277826&layers=T", "name": "Vrbanska - vodovod (MARPROM:211)"}, {"href": "http://www.openstreetmap.org/?mlat=46.548867&mlon=15.6286941#map=17/46.548867/15.6286941&layers=T", "name": "Engelsova - \u0160arhova (MARPROM:230)"}, {"href": "http://www.openstreetmap.org/?mlat=46.554464&mlon=15.6473267#map=17/46.554464/15.6473267&layers=T", "name": "Magdalena (MARPROM:5)"}, {"href": "http://www.openstreetmap.org/?mlat=46.5539875&mlon=15.5822344#map=17/46.5539875/15.5822344&layers=T", "name": "Limbu\u0161 - Marof (MARPROM:150)"}, {"href": "http://www.openstreetmap.org/?mlat=46.6168171&mlon=15.5531245#map=17/46.6168171/15.5531245&layers=T", "name": "Gaj nad Mar. - transformator (MARPROM:265)"}, {"href": "http://www.openstreetmap.org/?mlat=46.5396139&mlon=15.605577#map=17/46.5396139/15.605577&layers=T", "name": "Pohorska ul. - Mlada lipa (MARPROM:143)"}, {"href": "http://www.openstreetmap.org/?mlat=46.5563968&mlon=15.6559103#map=17/46.5563968/15.6559103&layers=T", "name": "Ore\u0161ko nabre\u017eje 2 (MARPROM:226)"}, {"href": "http://www.openstreetmap.org/?mlat=46.5470424&mlon=15.6569697#map=17/46.5470424/15.6569697&layers=T", "name": "Ob gozdu (MARPROM:326)"}, {"href": "http://www.openstreetmap.org/?mlat=46.5358408&mlon=15.6251116#map=17/46.5358408/15.6251116&layers=T", "name": "Radvanjska - Bor\u0161tnikova (MARPROM:189)"}, {"href": "http://www.openstreetmap.org/?mlat=46.5448382&mlon=15.6241467#map=17/46.5448382/15.6241467&layers=T", "name": "Prol. brigad - voja\u0161nica (MARPROM:91)"}, {"href": "http://www.openstreetmap.org/?mlat=46.5270864&mlon=15.6720776#map=17/46.5270864/15.6720776&layers=T", "name": "Kav\u010di\u010deva (MARPROM:337)"}, {"href": "http://www.openstreetmap.org/?mlat=46.5180472&mlon=15.6344751#map=17/46.5180472/15.6344751&layers=T", "name": "Razvanje - GD (MARPROM:69)"}, {"href": "http://www.openstreetmap.org/?mlat=46.554324&mlon=15.6769687#map=17/46.554324/15.6769687&layers=T", "name": "Zrkovska - GD (MARPROM:137)"}, {"href": "http://www.openstreetmap.org/?mlat=46.5545867&mlon=15.6171252#map=17/46.5545867/15.6171252&layers=T", "name": "Erjav\u010deva - ZD (MARPROM:349)"}, {"href": "http://www.openstreetmap.org/?mlat=46.5183827&mlon=15.6867849#map=17/46.5183827/15.6867849&layers=T", "name": "Pokopali\u0161\u010de Dobrava K (MARPROM:296)"}], "name": "EDGE_RETURNED", "count": 350}], "name": "NOT_CAR_SKIPPED", "count": 400}], "name": "IS_CANDIDATE", "count": 400}], "name": "NEARBY", "count": 400}], "name": "all", "count": 400}